{
"type": "FeatureCollection",
"name": "locations",
"crs": { "type": "name", "properties": { "name": "urn:ogc:def:crs:OGC:1.3:CRS84" } },
"features": [
{ "type": "Feature", "properties": { "Brand": "FEBO", "Name": "FEBO Reguliersbreestraat Amsterdam", "Address": "Reguliersbreestraat 38 1017 CN Amsterdam ", "Open_time": "{“Maandag”: “11:00”, “Dinsdag”: “11:00”, “Woensdag”: “11:00”, “Donderdag”: “11:00”, “Vrijdag”:”11:00”, “Zaterdag”: “11:00”, “Zondag”:”11:00”}", "Close_time": "{“Maandag”: “3:00”, “Dinsdag”: “3:00”, “Woensdag”: “3:00”, “Donderdag”: “3:00”, “Vrijdag”:”4:00”, “Zaterdag”: “4:00”, “Zondag”:”3:00”}", "y": "52.3663683", "x": "4.8951869" }, "geometry": { "type": "Point", "coordinates": [ 4.8951869, 52.3663683 ] } },
{ "type": "Feature", "properties": { "Brand": "FEBO", "Name": "FEBO Hoofddorp", "Address": "Marktplein 220 2132 CW Hoofddorp ", "Open_time": null, "Close_time": null, "y": "52.3044307", "x": "4.6945123" }, "geometry": { "type": "Point", "coordinates": [ 4.6945123, 52.3044307 ] } },
{ "type": "Feature", "properties": { "Brand": "FEBO", "Name": "FEBO Diagonaal Almere", "Address": "De Diagonaal 26 1315 XE Almere ", "Open_time": null, "Close_time": null, "y": "52.3699410", "x": "5.2198341" }, "geometry": { "type": "Point", "coordinates": [ 5.2198341, 52.369941 ] } },
{ "type": "Feature", "properties": { "Brand": "FEBO", "Name": "FEBO Almere-Buiten", "Address": "Noordeinde 176 1334 BR Almere ", "Open_time": null, "Close_time": null, "y": "52.3940862", "x": "5.2783878" }, "geometry": { "type": "Point", "coordinates": [ 5.2783878, 52.3940862 ] } },
{ "type": "Feature", "properties": { "Brand": "FEBO", "Name": "FEBO Amersfoort", "Address": "Langestraat 84 3811 AK Amersfoort ", "Open_time": null, "Close_time": null, "y": "52.1565007", "x": "5.3908975" }, "geometry": { "type": "Point", "coordinates": [ 5.3908975, 52.1565007 ] } },
{ "type": "Feature", "properties": { "Brand": "FEBO", "Name": "FEBO Amsteldijk Amsterdam", "Address": "Amsteldijk 132H 1078 RT Amsterdam ", "Open_time": null, "Close_time": null, "y": "52.3475051", "x": "4.9108813" }, "geometry": { "type": "Point", "coordinates": [ 4.9108813, 52.3475051 ] } },
{ "type": "Feature", "properties": { "Brand": "FEBO", "Name": "FEBO Stadionplein Amsterdam", "Address": "Stadionplein 132 1076 CK Amsterdam ", "Open_time": null, "Close_time": null, "y": "52.3446889", "x": "4.8578340" }, "geometry": { "type": "Point", "coordinates": [ 4.857834, 52.3446889 ] } },
{ "type": "Feature", "properties": { "Brand": "FEBO", "Name": "FEBO Martelaarsgracht Amsterdam", "Address": "Nieuwendijk 50 1012 MN Amsterdam ", "Open_time": null, "Close_time": null, "y": "52.3778580", "x": "4.8957962" }, "geometry": { "type": "Point", "coordinates": [ 4.8957962, 52.377858 ] } },
{ "type": "Feature", "properties": { "Brand": "FEBO", "Name": "FEBO Ferdinand Bolstraat Amsterdam", "Address": "Ferdinand Bolstraat 89 1072 LD Amsterdam ", "Open_time": null, "Close_time": null, "y": "52.3538862", "x": "4.8909587" }, "geometry": { "type": "Point", "coordinates": [ 4.8909587, 52.3538862 ] } },
{ "type": "Feature", "properties": { "Brand": "FEBO", "Name": "FEBO van Woustraat Amsterdam", "Address": "Van Woustraat 65 1074 AC Amsterdam ", "Open_time": null, "Close_time": null, "y": "52.3556290", "x": "4.9008139" }, "geometry": { "type": "Point", "coordinates": [ 4.9008139, 52.355629 ] } },
{ "type": "Feature", "properties": { "Brand": "FEBO", "Name": "FEBO Galileiplantsoen Amsterdam", "Address": "Galileiplantsoen 46 1098 NB Amsterdam ", "Open_time": null, "Close_time": null, "y": "52.3535002", "x": "4.9398927" }, "geometry": { "type": "Point", "coordinates": [ 4.9398927, 52.3535002 ] } },
{ "type": "Feature", "properties": { "Brand": "FEBO", "Name": "FEBO Kinkerstraat Amsterdam", "Address": "Kinkerstraat 166H 1053 EJ Amsterdam ", "Open_time": null, "Close_time": null, "y": "52.3662632", "x": "4.8681310" }, "geometry": { "type": "Point", "coordinates": [ 4.868131, 52.3662632 ] } },
{ "type": "Feature", "properties": { "Brand": "FEBO", "Name": "FEBO Oudezijds Voorburgwal Amsterdam", "Address": "Oudezijds Voorburgwal 33 1012 EJ Amsterdam ", "Open_time": null, "Close_time": null, "y": "52.3747096", "x": "4.8995536" }, "geometry": { "type": "Point", "coordinates": [ 4.8995536, 52.3747096 ] } },
{ "type": "Feature", "properties": { "Brand": "FEBO", "Name": "FEBO Eerste van Swindenstraat Amsterdam", "Address": "Eerste van Swindenstraat 229 1093 GB Amsterdam ", "Open_time": null, "Close_time": null, "y": "52.3627214", "x": "4.9268885" }, "geometry": { "type": "Point", "coordinates": [ 4.9268885, 52.3627214 ] } },
{ "type": "Feature", "properties": { "Brand": "FEBO", "Name": "FEBO Zeilstraat Amsterdam", "Address": "Zeilstraat 14H 1075 SH Amsterdam ", "Open_time": null, "Close_time": null, "y": "52.3513135", "x": "4.8553891" }, "geometry": { "type": "Point", "coordinates": [ 4.8553891, 52.3513135 ] } },
{ "type": "Feature", "properties": { "Brand": "FEBO", "Name": "FEBO Bos en Lommerplein Amsterdam", "Address": "Bos en Lommerplein 200 1055 EK Amsterdam ", "Open_time": null, "Close_time": null, "y": "52.3781649", "x": "4.8456447" }, "geometry": { "type": "Point", "coordinates": [ 4.8456447, 52.3781649 ] } },
{ "type": "Feature", "properties": { "Brand": "FEBO", "Name": "FEBO Javaplein Amsterdam", "Address": "Javaplein 1 1095 CH Amsterdam ", "Open_time": null, "Close_time": null, "y": "52.3639794", "x": "4.9398124" }, "geometry": { "type": "Point", "coordinates": [ 4.9398124, 52.3639794 ] } },
{ "type": "Feature", "properties": { "Brand": "FEBO", "Name": "FEBO Linnaeusstraat Amsterdam", "Address": "Linnaeusstraat 94 1092 CP Amsterdam ", "Open_time": null, "Close_time": null, "y": "52.3560733", "x": "4.9275091" }, "geometry": { "type": "Point", "coordinates": [ 4.9275091, 52.3560733 ] } },
{ "type": "Feature", "properties": { "Brand": "FEBO", "Name": "FEBO Hugo de Grootplein Amsterdam", "Address": "Hugo de Grootplein 3H 1052 KV Amsterdam ", "Open_time": null, "Close_time": null, "y": "52.3743729", "x": "4.8731616" }, "geometry": { "type": "Point", "coordinates": [ 4.8731616, 52.3743729 ] } },
{ "type": "Feature", "properties": { "Brand": "FEBO", "Name": "FEBO Leidsestraat Amsterdam", "Address": "Leidsestraat 94H 1017 PE Amsterdam ", "Open_time": null, "Close_time": null, "y": "52.3647574", "x": "4.8837255" }, "geometry": { "type": "Point", "coordinates": [ 4.8837255, 52.3647574 ] } },
{ "type": "Feature", "properties": { "Brand": "FEBO", "Name": "FEBO Beverwijk", "Address": "Beverhof 45 1941 EC Beverwijk ", "Open_time": null, "Close_time": null, "y": "52.4830966", "x": "4.6601322" }, "geometry": { "type": "Point", "coordinates": [ 4.6601322, 52.4830966 ] } },
{ "type": "Feature", "properties": { "Brand": "FEBO", "Name": "FEBO Den Bosch", "Address": "Goudsmidstraat 10 5232 BP Den Bosch ", "Open_time": null, "Close_time": null, "y": "51.7091278", "x": "5.3343945" }, "geometry": { "type": "Point", "coordinates": [ 5.3343945, 51.7091278 ] } },
{ "type": "Feature", "properties": { "Brand": "FEBO", "Name": "FEBO Gorinchem", "Address": "Hoogstraat 13 4201 CA Gorinchem ", "Open_time": null, "Close_time": null, "y": "51.8302580", "x": "4.9760034" }, "geometry": { "type": "Point", "coordinates": [ 4.9760034, 51.830258 ] } },
{ "type": "Feature", "properties": { "Brand": "FEBO", "Name": "FEBO Fustweg Haarlem", "Address": "Fustweg 1B 2031 CJ Haarlem ", "Open_time": null, "Close_time": null, "y": "52.3852134", "x": "4.6618429" }, "geometry": { "type": "Point", "coordinates": [ 4.6618429, 52.3852134 ] } },
{ "type": "Feature", "properties": { "Brand": "FEBO", "Name": "FEBO Paul Krugerstraat Haarlem", "Address": "Paul Krugerstraat 11 2021 XL Haarlem ", "Open_time": null, "Close_time": null, "y": "52.3929477", "x": "4.6410728" }, "geometry": { "type": "Point", "coordinates": [ 4.6410728, 52.3929477 ] } },
{ "type": "Feature", "properties": { "Brand": "FEBO", "Name": "FEBO Heerhugowaard", "Address": "Middenwaard 65B 1703 SC Heerhugowaard ", "Open_time": null, "Close_time": null, "y": "52.6627559", "x": "4.8285705" }, "geometry": { "type": "Point", "coordinates": [ 4.8285705, 52.6627559 ] } },
{ "type": "Feature", "properties": { "Brand": "FEBO", "Name": "FEBO Gedempte Turfhaven Hoorn", "Address": "Gedempte Turfhaven 8 1621 HE Hoorn ", "Open_time": null, "Close_time": null, "y": "52.6425866", "x": "5.0558586" }, "geometry": { "type": "Point", "coordinates": [ 5.0558586, 52.6425866 ] } },
{ "type": "Feature", "properties": { "Brand": "FEBO", "Name": "FEBO Amsterdam Bijlmerplein", "Address": "Bijlmerplein 367A 1102 DK Amsterdam ", "Open_time": null, "Close_time": null, "y": "52.3148049", "x": "4.9535018" }, "geometry": { "type": "Point", "coordinates": [ 4.9535018, 52.3148049 ] } },
{ "type": "Feature", "properties": { "Brand": "FEBO", "Name": "FEBO Leiden", "Address": "Haarlemmerstraat 157 2312 DP Leiden ", "Open_time": null, "Close_time": null, "y": "52.1601599", "x": "4.4928991" }, "geometry": { "type": "Point", "coordinates": [ 4.4928991, 52.1601599 ] } },
{ "type": "Feature", "properties": { "Brand": "FEBO", "Name": "FEBO Lelystad", "Address": "Kroonpassage 28 8232 VP Lelystad ", "Open_time": null, "Close_time": null, "y": "52.5077715", "x": "5.4749011" }, "geometry": { "type": "Point", "coordinates": [ 5.4749011, 52.5077715 ] } },
{ "type": "Feature", "properties": { "Brand": "FEBO", "Name": "FEBO Oosterhout", "Address": "Arendshof 1A 4901 LG Oosterhout ", "Open_time": null, "Close_time": null, "y": "51.6435769", "x": "4.8569043" }, "geometry": { "type": "Point", "coordinates": [ 4.8569043, 51.6435769 ] } },
{ "type": "Feature", "properties": { "Brand": "FEBO", "Name": "FEBO Tilburg", "Address": "Heuvelstraat 50 5038 AG Tilburg ", "Open_time": null, "Close_time": null, "y": "51.5560736", "x": "5.0873195" }, "geometry": { "type": "Point", "coordinates": [ 5.0873195, 51.5560736 ] } },
{ "type": "Feature", "properties": { "Brand": "FEBO", "Name": "FEBO Utrecht", "Address": "Lange Elisabethstraat 2 3511 JC Utrecht ", "Open_time": null, "Close_time": null, "y": "52.0909374", "x": "5.1162154" }, "geometry": { "type": "Point", "coordinates": [ 5.1162154, 52.0909374 ] } },
{ "type": "Feature", "properties": { "Brand": "FEBO", "Name": "FEBO Drive Wormerveer", "Address": "Samsonweg 1H 1521 RA Wormerveer ", "Open_time": null, "Close_time": null, "y": "52.5040555", "x": "4.7813160" }, "geometry": { "type": "Point", "coordinates": [ 4.781316, 52.5040555 ] } },
{ "type": "Feature", "properties": { "Brand": "FEBO", "Name": "FEBO Gedempte Gracht 13 Zaandam", "Address": "Gedempte Gracht 13 1506 CA Zaandam ", "Open_time": null, "Close_time": null, "y": "52.4396931", "x": "4.8231500" }, "geometry": { "type": "Point", "coordinates": [ 4.82315, 52.4396931 ] } },
{ "type": "Feature", "properties": { "Brand": "FEBO", "Name": "FEBO Zandvoort", "Address": "Kerkplein 5 2042 JH Zandvoort ", "Open_time": null, "Close_time": null, "y": "52.3721090", "x": "4.5289390" }, "geometry": { "type": "Point", "coordinates": [ 4.528939, 52.372109 ] } },
{ "type": "Feature", "properties": { "Brand": "FEBO", "Name": "FEBO Grote Markt Zwolle", "Address": "Grote Markt 15 8011 LW Zwolle ", "Open_time": null, "Close_time": null, "y": "52.5121753", "x": "6.0921224" }, "geometry": { "type": "Point", "coordinates": [ 6.0921224, 52.5121753 ] } },
{ "type": "Feature", "properties": { "Brand": "FEBO", "Name": "FEBO Drive Zwolle", "Address": "Oude Meppelerweg 5 8011 AK Zwolle ", "Open_time": null, "Close_time": null, "y": "52.5249441", "x": "6.1192479" }, "geometry": { "type": "Point", "coordinates": [ 6.1192479, 52.5249441 ] } },
{ "type": "Feature", "properties": { "Brand": "FEBO", "Name": "FEBO Gedempte Gracht 90 Zaandam", "Address": "Gedempte Gracht 90 1506 CJ Zaandam ", "Open_time": null, "Close_time": null, "y": "52.4389415", "x": "4.8182182" }, "geometry": { "type": "Point", "coordinates": [ 4.8182182, 52.4389415 ] } },
{ "type": "Feature", "properties": { "Brand": "FEBO", "Name": "FEBO Drive Oostzaan", "Address": "Ambacht 30 1511 JZ Oostzaan ", "Open_time": null, "Close_time": null, "y": "52.4320497", "x": "4.8625554" }, "geometry": { "type": "Point", "coordinates": [ 4.8625554, 52.4320497 ] } },
{ "type": "Feature", "properties": { "Brand": "FEBO", "Name": "FEBO ArenA Automatiek Amsterdam", "Address": "Arenaboulevard 135 1101 EJ Amsterdam ", "Open_time": null, "Close_time": null, "y": "0", "x": "0" }, "geometry": { "type": "Point", "coordinates": [ 0.0, 0.0 ] } },
{ "type": "Feature", "properties": { "Brand": "FEBO", "Name": "FEBO Buikslotermeerplein Amsterdam", "Address": "Buikslotermeerplein 54 1025 EW Amsterdam ", "Open_time": null, "Close_time": null, "y": "0", "x": "0" }, "geometry": { "type": "Point", "coordinates": [ 0.0, 0.0 ] } },
{ "type": "Feature", "properties": { "Brand": "FEBO", "Name": "FEBO Daniel Goedkoopstraat Amsterdam", "Address": "Daniel Goedkoopstraat 13B 1096 BD Amsterdam ", "Open_time": null, "Close_time": null, "y": "52.3348847", "x": "4.9221969" }, "geometry": { "type": "Point", "coordinates": [ 4.9221969, 52.3348847 ] } },
{ "type": "Feature", "properties": { "Brand": "FEBO", "Name": "FEBO Mosveld Amsterdam", "Address": "Gentiaanstraat 7 1031 AE Amsterdam ", "Open_time": null, "Close_time": null, "y": "52.3911966", "x": "4.9119937" }, "geometry": { "type": "Point", "coordinates": [ 4.9119937, 52.3911966 ] } },
{ "type": "Feature", "properties": { "Brand": "FEBO", "Name": "FEBO Nieuwendijk Amsterdam", "Address": "Nieuwendijk 220 1012 MX Amsterdam ", "Open_time": null, "Close_time": null, "y": "52.3737287", "x": "4.8926847" }, "geometry": { "type": "Point", "coordinates": [ 4.8926847, 52.3737287 ] } },
{ "type": "Feature", "properties": { "Brand": "FEBO", "Name": "FEBO Osdorpplein Amsterdam", "Address": "Osdorpplein 501A 1068 TA Amsterdam ", "Open_time": null, "Close_time": null, "y": "52.3585073", "x": "4.8031714" }, "geometry": { "type": "Point", "coordinates": [ 4.8031714, 52.3585073 ] } },
{ "type": "Feature", "properties": { "Brand": "FEBO", "Name": "FEBO Slotermeerlaan Amsterdam", "Address": "Slotermeerlaan 133A 1063 JN Amsterdam ", "Open_time": null, "Close_time": null, "y": "52.3811907", "x": "4.8209325" }, "geometry": { "type": "Point", "coordinates": [ 4.8209325, 52.3811907 ] } },
{ "type": "Feature", "properties": { "Brand": "FEBO", "Name": "FEBO Waterlandplein Amsterdam", "Address": "Waterlandplein 3 1024 LL Amsterdam ", "Open_time": null, "Close_time": null, "y": "52.3923398", "x": "4.9564857" }, "geometry": { "type": "Point", "coordinates": [ 4.9564857, 52.3923398 ] } },
{ "type": "Feature", "properties": { "Brand": "FEBO", "Name": "FEBO Hilversum", "Address": "Kerkstraat 2 1211 CW Hilversum ", "Open_time": null, "Close_time": null, "y": "52.2256333", "x": "5.1772889" }, "geometry": { "type": "Point", "coordinates": [ 5.1772889, 52.2256333 ] } },
{ "type": "Feature", "properties": { "Brand": "FEBO", "Name": "FEBO Nijmegen", "Address": "Molenstraat 52 6511 HN Nijmegen ", "Open_time": null, "Close_time": null, "y": "51.8433611", "x": "5.8610443" }, "geometry": { "type": "Point", "coordinates": [ 5.8610443, 51.8433611 ] } },
{ "type": "Feature", "properties": { "Brand": "FEBO", "Name": "FEBO Uithoorn", "Address": "Zijdelwaardplein 75B 1422 DL Uithoorn ", "Open_time": null, "Close_time": null, "y": "52.2458570", "x": "4.8276373" }, "geometry": { "type": "Point", "coordinates": [ 4.8276373, 52.245857 ] } },
{ "type": "Feature", "properties": { "Brand": "FEBO", "Name": "FEBO Stationsplein Almere", "Address": "Stationsplein 47 1315 KT Almere ", "Open_time": null, "Close_time": null, "y": "52.3745770", "x": "5.2192387" }, "geometry": { "type": "Point", "coordinates": [ 5.2192387, 52.374577 ] } },
{ "type": "Feature", "properties": { "Brand": "FEBO", "Name": "FEBO Kersenboogerd", "Address": "Betje Wolffplein 169 1628 NK Hoorn ", "Open_time": null, "Close_time": null, "y": "52.6524139", "x": "5.0862206" }, "geometry": { "type": "Point", "coordinates": [ 5.0862206, 52.6524139 ] } },
{ "type": "Feature", "properties": { "Brand": "FEBO", "Name": "FEBO Drive Hoorn", "Address": "Jan Tinbergenweg 7 1689 ZV Zwaag ", "Open_time": null, "Close_time": null, "y": "52.6806307", "x": "5.0836013" }, "geometry": { "type": "Point", "coordinates": [ 5.0836013, 52.6806307 ] } },
{ "type": "Feature", "properties": { "Brand": "FEBO", "Name": "FEBO Rozengracht", "Address": "Rozengracht 137 1016 LV Amsterdam ", "Open_time": null, "Close_time": null, "y": "52.3727165", "x": "4.8786724" }, "geometry": { "type": "Point", "coordinates": [ 4.8786724, 52.3727165 ] } },
{ "type": "Feature", "properties": { "Brand": "FEBO", "Name": "FEBO Diemen", "Address": "Diemerplein 188 1111 GE Diemen ", "Open_time": "{“Maandag”: “12:00”, “Dinsdag”: “11:00”, “Woensdag”: “11:00”, “Donderdag”: “11:00”, “Vrijdag”:”11:00”, “Zaterdag”: “11:00”, “Zondag”:”12:00”}", "Close_time": "{“Maandag”: “23:30”, “Dinsdag”: “23:30”, “Woensdag”: “23:30”, “Donderdag”: “23:30”, “Vrijdag”:”00:00”, “Zaterdag”: “00:00”, “Zondag”:”23:30”}", "y": "52.3415495", "x": "4.9628698" }, "geometry": { "type": "Point", "coordinates": [ 4.9628698, 52.3415495 ] } },
{ "type": "Feature", "properties": { "Brand": "FEBO", "Name": "FEBO Aalsmeer", "Address": "Aalsmeerderweg 497 1432 ED Aalsmeer ", "Open_time": null, "Close_time": null, "y": "52.2893439", "x": "4.8217126" }, "geometry": { "type": "Point", "coordinates": [ 4.8217126, 52.2893439 ] } },
{ "type": "Feature", "properties": { "Brand": "FEBO", "Name": "FEBO De Lucht", "Address": "Rijksweg 2 5314 LJ Bruchem ", "Open_time": null, "Close_time": null, "y": "0", "x": "0" }, "geometry": { "type": "Point", "coordinates": [ 0.0, 0.0 ] } },
{ "type": "Feature", "properties": { "Brand": "FEBO", "Name": "FEBO Dronten", "Address": "Koornmarktpoort 1 8253 TD Dronten ", "Open_time": null, "Close_time": null, "y": "52.5502749", "x": "5.6947517" }, "geometry": { "type": "Point", "coordinates": [ 5.6947517, 52.5502749 ] } },
{ "type": "Feature", "properties": { "Brand": "FEBO", "Name": "FEBO Hoofddorp Rijksweg A4", "Address": "Rijksweg 4 2132 MA Hoofddorp ", "Open_time": null, "Close_time": null, "y": "52.2942087", "x": "4.7311778" }, "geometry": { "type": "Point", "coordinates": [ 4.7311778, 52.2942087 ] } },
{ "type": "Feature", "properties": { "Brand": "FEBO", "Name": "FEBO Koestraat Purmerend", "Address": "Koestraat 4 1441 CV Purmerend ", "Open_time": null, "Close_time": null, "y": "52.5084065", "x": "4.9482704" }, "geometry": { "type": "Point", "coordinates": [ 4.9482704, 52.5084065 ] } },
{ "type": "Feature", "properties": { "Brand": "FEBO", "Name": "FEBO Tijnmuiden Amsterdam", "Address": "Tijnmuiden 53 unit A1a 1046 AK Amsterdam ", "Open_time": null, "Close_time": null, "y": "0", "x": "0" }, "geometry": { "type": "Point", "coordinates": [ 0.0, 0.0 ] } },
{ "type": "Feature", "properties": { "Brand": "FEBO", "Name": "FEBO Harderwijk", "Address": "Wolleweverstraat 6 3841 AZ Harderwijk ", "Open_time": null, "Close_time": null, "y": "52.3500329", "x": "5.6192667" }, "geometry": { "type": "Point", "coordinates": [ 5.6192667, 52.3500329 ] } },
{ "type": "Feature", "properties": { "Brand": "Smullers", "Name": "Smullers Amersfoort", "Address": "Stationsplein 49-53 Amersfoort ", "Open_time": "{“Maandag”: “11:00”, “Dinsdag”: “11:00”, “Woensdag”: “11:00”, “Donderdag”: “11:00”, “Vrijdag”:”11:00”, “Zaterdag”: “12:00”, “Zondag”:”12:00”}", "Close_time": "{“Maandag”: “22:00”, “Dinsdag”: “22:00”, “Woensdag”: “22:00”, “Donderdag”: “23:00”, “Vrijdag”:”23:00”, “Zaterdag”: “22:00”, “Zondag”:”22:00”}", "y": "52.1528844", "x": "5.3767056" }, "geometry": { "type": "Point", "coordinates": [ 5.3767056, 52.1528844 ] } },
{ "type": "Feature", "properties": { "Brand": "Smullers", "Name": "Smullers Amsterdam Amstel", "Address": "Julianapassage 8 Amsterdam ", "Open_time": "{“Maandag”: “12:00”, “Dinsdag”: “12:00”, “Woensdag”: “12:00”, “Donderdag”: “12:00”, “Vrijdag”:”12:00”, “Zaterdag”: “12:00”, “Zondag”:”12:00”}", "Close_time": "{“Maandag”: “20:00”, “Dinsdag”: “20:00”, “Woensdag”: “20:00”, “Donderdag”: “20:00”, “Vrijdag”:”20:00”, “Zaterdag”: “19:00”, “Zondag”:”19:00”}", "y": "52.3464927", "x": "4.9182570" }, "geometry": { "type": "Point", "coordinates": [ 4.918257, 52.3464927 ] } },
{ "type": "Feature", "properties": { "Brand": "Smullers", "Name": "Smullers Amsterdam CS (Middentunnel)", "Address": "Stationsplein 35D Amsterdam", "Open_time": "{“Maandag”: “11:00”, “Dinsdag”: “11:00”, “Woensdag”: “11:00”, “Donderdag”: “11:00”, “Vrijdag”:”11:00”, “Zaterdag”: “11:00”, “Zondag”:”11:00”}", "Close_time": "{“Maandag”: “23:00”, “Dinsdag”: “23:00”, “Woensdag”: “00:00”, “Donderdag”: “00:00”, “Vrijdag”:”1:00”, “Zaterdag”: “1:00”, “Zondag”:”00:00”}", "y": "52.3788000", "x": "4.9005979" }, "geometry": { "type": "Point", "coordinates": [ 4.9005979, 52.3788 ] } },
{ "type": "Feature", "properties": { "Brand": "Smullers", "Name": "Smullers Amsterdam CS (Westtunnel)", "Address": "ein 45E Amsterdam ", "Open_time": "{“Maandag”: “11:00”, “Dinsdag”: “11:00”, “Woensdag”: “11:00”, “Donderdag”: “11:00”, “Vrijdag”:”11:00”, “Zaterdag”: “11:00”, “Zondag”:”11:00”}", "Close_time": "{“Maandag”: “23:00”, “Dinsdag”: “23:00”, “Woensdag”: “23:00”, “Donderdag”: “23:00”, “Vrijdag”:”23:00”, “Zaterdag”: “23:00”, “Zondag”:”23:00”}", "y": "0", "x": "0" }, "geometry": { "type": "Point", "coordinates": [ 0.0, 0.0 ] } }
]
}
